[
    {
        "id": "padel-dxb-meetup",
        "name": "Padel DXB Community",
        "platform": "Meetup",
        "members": 1450,
        "link": "https://meetup.com/padel-dxb",
        "location": {
            "lat": 25.102,
            "lng": 55.163
        },
        "type": "Public",
        "description": "Daily games and tournaments for all levels."
    },
    {
        "id": "padel-people-dubai",
        "name": "The Padel People",
        "platform": "Telegram",
        "members": 890,
        "link": "https://t.me/padelpeopledubai_mock",
        "location": {
            "lat": 25.077,
            "lng": 55.140
        },
        "type": "Public",
        "description": "General chat for finding players in Dubai."
    },
    {
        "id": "padel-ladies-dubai",
        "name": "Padel Ladies Dubai",
        "platform": "WhatsApp",
        "members": 240,
        "link": "https://chat.whatsapp.com/mock-link-ladies",
        "location": {
            "lat": 25.197,
            "lng": 55.274
        },
        "type": "Private",
        "description": "Exclusive group for female padel players."
    },
    {
        "id": "matcha-community",
        "name": "Matcha Club Social",
        "platform": "WhatsApp",
        "members": 500,
        "link": "https://chat.whatsapp.com/mock-link-matcha",
        "location": {
            "lat": 25.163,
            "lng": 55.244
        },
        "type": "Public",
        "description": "Community for Matcha Club regulars."
    },
    {
        "id": "dubai-padel-tennis",
        "name": "Dubai Padel Tennis",
        "platform": "Facebook",
        "members": 3200,
        "link": "https://facebook.com/groups/dubaipadel",
        "location": {
            "lat": 25.204,
            "lng": 55.270
        },
        "type": "Public",
        "description": "Largest FB group for buying gear and arranging games."
    }
]